{
"type": "FeatureCollection",
"crs": { "type": "name", "properties": { "name": "urn:ogc:def:crs:OGC:1.3:CRS84" } },
                                                                                
"features": [
{ "type": "Feature", "properties": { "meeting_date": "3rd Tuesday", "meeting_location": "Beachy Elementary School Auditorium", "neighborhood_council_name": "Arleta", "zip_code": "91331", "extended_zip_code": null, "room": null }, "geometry": { "type": "Point", "coordinates": [ -118.43876881899968, 34.248498915000482 ] } },
{ "type": "Feature", "properties": { "meeting_date": "4th Monday", "meeting_location": "Ramona Hall", "neighborhood_council_name": "Arroyo Seco", "zip_code": "90065", "extended_zip_code": null, "room": null }, "geometry": { "type": "Point", "coordinates": [ -118.28290724999971, 33.79726144300048 ] } },
{ "type": "Feature", "properties": { "meeting_date": "2nd Thursday", "meeting_location": "Christ’s Church of Griffith Park", "neighborhood_council_name": "Atwater Village", "zip_code": "90039", "extended_zip_code": null, "room": null }, "geometry": { "type": "Point", "coordinates": [ -118.26435266699968, 34.121821575000467 ] } },
{ "type": "Feature", "properties": { "meeting_date": "4th Wednesday", "meeting_location": "Community Magnet School", "neighborhood_council_name": "Bel Air-Beverly Crest", "zip_code": "90049", "extended_zip_code": null, "room": null }, "geometry": { "type": "Point", "coordinates": [ -118.46296867499967, 34.080942863000473 ] } },
{ "type": "Feature", "properties": { "meeting_date": "4th Wednesday", "meeting_location": "Boyle Heights Senior Citizen Center", "neighborhood_council_name": "Boyle Heights", "zip_code": "90033", "extended_zip_code": null, "room": null }, "geometry": { "type": "Point", "coordinates": [ -118.20617927099971, 34.039185618000488 ] } },
{ "type": "Feature", "properties": { "meeting_date": "4th Thursday", "meeting_location": "Los Angeles Ascot Public Library", "neighborhood_council_name": "CANNDU", "zip_code": "90003", "extended_zip_code": null, "room": null }, "geometry": { "type": "Point", "coordinates": [ -118.27482876999971, 33.974652765000485 ] } },
{ "type": "Feature", "properties": { "meeting_date": "4th Wednesday", "meeting_location": "Canoga Park Community Center", "neighborhood_council_name": "Canoga Park", "zip_code": "91303", "extended_zip_code": null, "room": null }, "geometry": { "type": "Point", "coordinates": [ -118.60153630199972, 34.202521321000461 ] } },
{ "type": "Feature", "properties": { "meeting_date": "2nd Monday", "meeting_location": "Fred Roberts Recreation Center", "neighborhood_council_name": "Central Alameda", "zip_code": "90011", "extended_zip_code": null, "room": null }, "geometry": { "type": "Point", "coordinates": [ -118.24406609999971, 34.000771365000446 ] } },
{ "type": "Feature", "properties": { "meeting_date": "4th Monday", "meeting_location": "Hollywood Neighborhood City Hall", "neighborhood_council_name": "Central Hollywood", "zip_code": "90028", "extended_zip_code": null, "room": null }, "geometry": { "type": "Point", "coordinates": [ -118.33051970699972, 34.09435748700048 ] } },
{ "type": "Feature", "properties": { "meeting_date": "2nd Tuesday", "meeting_location": "Port of Los Angeles High School", "neighborhood_council_name": "Central San Pedro", "zip_code": "90731", "extended_zip_code": null, "room": null }, "geometry": { "type": "Point", "coordinates": [ -118.28289578299967, 33.739777243000447 ] } },
{ "type": "Feature", "properties": { "meeting_date": "1st Wednesday", "meeting_location": "Lawrence Middle School", "neighborhood_council_name": "Chatsworth", "zip_code": "91311", "extended_zip_code": null, "room": null }, "geometry": { "type": "Point", "coordinates": [ -118.59290669499973, 34.255260709000481 ] } },
{ "type": "Feature", "properties": { "meeting_date": "3rd Monday", "meeting_location": "Cabrillo Marina Community Bldg.", "neighborhood_council_name": "Coastal San Pedro", "zip_code": "90731", "extended_zip_code": null, "room": null }, "geometry": { "type": "Point", "coordinates": [ -118.28460989399969, 33.737872286000481 ] } },
{ "type": "Feature", "properties": { "meeting_date": "2nd Thursday", "meeting_location": "Del Rey Square", "neighborhood_council_name": "Del Rey", "zip_code": "90066", "extended_zip_code": null, "room": null }, "geometry": { "type": "Point", "coordinates": [ -118.45005790199968, 33.957441764000464 ] } },
{ "type": "Feature", "properties": { "meeting_date": "2nd Tuesday", "meeting_location": "Los Angeles Theatre", "neighborhood_council_name": "Downtown Los Angeles", "zip_code": "90012", "extended_zip_code": null, "room": null }, "geometry": { "type": "Point", "coordinates": [ -118.2524402839997, 34.04619857600045 ] } },
{ "type": "Feature", "properties": { "meeting_date": "1st Tuesday", "meeting_location": "Eagle Rock City Hall", "neighborhood_council_name": "Eagle Rock", "zip_code": "90041", "extended_zip_code": null, "room": null }, "geometry": { "type": "Point", "coordinates": [ -118.21091203499969, 34.139299282000479 ] } },
{ "type": "Feature", "properties": { "meeting_date": "3rd Monday", "meeting_location": "Armenian Youth Center", "neighborhood_council_name": "East Hollywood", "zip_code": "90027", "extended_zip_code": null, "room": null }, "geometry": { "type": "Point", "coordinates": [ -118.29731241699972, 34.099880388000486 ] } },
{ "type": "Feature", "properties": { "meeting_date": "3rd Thursday", "meeting_location": "Dorris Place Elementary School (Auditorium)", "neighborhood_council_name": "Elysian Valley Riverside", "zip_code": "90031", "extended_zip_code": null, "room": null }, "geometry": { "type": "Point", "coordinates": [ -118.23753881899972, 34.091023373000439 ] } },
{ "type": "Feature", "properties": { "meeting_date": "General: 4th Monday Planning: 1st Thursday", "meeting_location": "Amistad Plaza Appt. Community Rm.", "neighborhood_council_name": "Empowerment Congress Central", "zip_code": "90047", "extended_zip_code": null, "room": null }, "geometry": { "type": "Point", "coordinates": [ -118.30892709799969, 33.984912451000469 ] } },
{ "type": "Feature", "properties": { "meeting_date": "1st Thursday", "meeting_location": "Martin Luther King, Jr. Park Rec Center", "neighborhood_council_name": "Empowerment Congress North", "zip_code": "90062", "extended_zip_code": null, "room": null }, "geometry": { "type": "Point", "coordinates": [ -118.30888646599971, 34.01391002100047 ] } },
{ "type": "Feature", "properties": { "meeting_date": "4th Tuesday", "meeting_location": "Constituent Service Center", "neighborhood_council_name": "Empowerment Congress Southeast", "zip_code": "90044", "extended_zip_code": null, "room": null }, "geometry": { "type": "Point", "coordinates": [ -118.29189489299972, 33.961218293000456 ] } },
{ "type": "Feature", "properties": { "meeting_date": "3rd Monday", "meeting_location": "Constituent Service Center", "neighborhood_council_name": "Empowerment Congress Southwest", "zip_code": "90044", "extended_zip_code": null, "room": null }, "geometry": { "type": "Point", "coordinates": [ -118.29189489299972, 33.961218293000456 ] } },
{ "type": "Feature", "properties": { "meeting_date": "Community Town Hall Meeting 1st Saturday", "meeting_location": "Crenshaw United Methodist Church Hall", "neighborhood_council_name": "Empowerment Congress West", "zip_code": "90008", "extended_zip_code": null, "room": null }, "geometry": { "type": "Point", "coordinates": [ -118.3405255989997, 34.006926742000473 ] } },
{ "type": "Feature", "properties": { "meeting_date": "Board Meeting 3rd Monday", "meeting_location": "DWP Crenshaw Office Community Room", "neighborhood_council_name": "Empowerment Congress West", "zip_code": "90008", "extended_zip_code": null, "room": null }, "geometry": { "type": "Point", "coordinates": [ -118.3350867909997, 34.011510406000468 ] } },
{ "type": "Feature", "properties": { "meeting_date": "4th Wednesday", "meeting_location": "Encino Community Center", "neighborhood_council_name": "Encino", "zip_code": "91316", "extended_zip_code": null, "room": null }, "geometry": { "type": "Point", "coordinates": [ -118.50112205999972, 34.160420298000474 ] } },
{ "type": "Feature", "properties": { "meeting_date": "3rd Thursday", "meeting_location": "Lake View Terrace Recreation Center", "neighborhood_council_name": "Foothills Trails District", "zip_code": "91342", "extended_zip_code": null, "room": null }, "geometry": { "type": "Point", "coordinates": [ -118.37280745899972, 34.274534014000494 ] } },
{ "type": "Feature", "properties": { "meeting_date": "3rd Tuesday", "meeting_location": "Glassell Park Community Center", "neighborhood_council_name": "Glassell Park", "zip_code": "90065", "extended_zip_code": null, "room": null }, "geometry": { "type": "Point", "coordinates": [ -118.2327524699997, 34.117452304000437 ] } },
{ "type": "Feature", "properties": { "meeting_date": "Last Monday", "meeting_location": "Bethlehem Lutheran Church", "neighborhood_council_name": "Granada Hills North", "zip_code": "91344", "extended_zip_code": null, "room": null }, "geometry": { "type": "Point", "coordinates": [ -118.50218210699973, 34.293025608000448 ] } },
{ "type": "Feature", "properties": { "meeting_date": "1st Thursday", "meeting_location": "Granada Hills Charter High School, Rawley Hall", "neighborhood_council_name": "Granada Hills South", "zip_code": "91344", "extended_zip_code": null, "room": null }, "geometry": { "type": "Point", "coordinates": [ -118.52339251399968, 34.262570885000457 ] } },
{ "type": "Feature", "properties": { "meeting_date": "3rd Tuesday", "meeting_location": "Cypress Recreation Center", "neighborhood_council_name": "Greater Cypress Park", "zip_code": "90065", "extended_zip_code": null, "room": null }, "geometry": { "type": "Point", "coordinates": [ -118.22561536799969, 34.08961629500044 ] } },
{ "type": "Feature", "properties": { "meeting_date": "4th Tuesday", "meeting_location": "Cisneros Learning Academy Auditorium", "neighborhood_council_name": "Greater Echo Park Elysian", "zip_code": "90026", "extended_zip_code": null, "room": null }, "geometry": { "type": "Point", "coordinates": [ -118.2653120389997, 34.076785586000483 ] } },
{ "type": "Feature", "properties": { "meeting_date": "3rd Tuesday", "meeting_location": "Toluca Lake Elementary School Adtrm.", "neighborhood_council_name": "Greater Toluca Lake", "zip_code": "91601", "extended_zip_code": null, "room": null }, "geometry": { "type": "Point", "coordinates": [ -118.3615157049997, 34.158570251000469 ] } },
{ "type": "Feature", "properties": { "meeting_date": "1st Monday", "meeting_location": "Valley College Cafeteria\/Conf. Rm.", "neighborhood_council_name": "Greater Valley Glen", "zip_code": "91401", "extended_zip_code": null, "room": null }, "geometry": { "type": "Point", "coordinates": [ -120.93297982099972, 37.725953755000489 ] } },
{ "type": "Feature", "properties": { "meeting_date": "2nd Wednesday ", "meeting_location": "Wilshire Ebell Theatre", "neighborhood_council_name": "Greater Wilshire", "zip_code": "90005", "extended_zip_code": null, "room": null }, "geometry": { "type": "Point", "coordinates": [ -118.3248167749997, 34.060496402000467 ] } },
{ "type": "Feature", "properties": { "meeting_date": "3rd Wednesday", "meeting_location": "Harbor City\/Harbor Gateway Library", "neighborhood_council_name": "Harbor City", "zip_code": "90710", "extended_zip_code": null, "room": null }, "geometry": { "type": "Point", "coordinates": [ -118.30746635999969, 33.806634794000445 ] } },
{ "type": "Feature", "properties": { "meeting_date": "2nd Tuesday, 4th Tuesday every 3rd month (January, April, July, and October) General Membership Meeting at 7 pm", "meeting_location": "135th St. Elementary School", "neighborhood_council_name": "Harbor Gateway North", "zip_code": "90247", "extended_zip_code": null, "room": null }, "geometry": { "type": "Point", "coordinates": [ -118.28941003599971, 33.90918808000049 ] } },
{ "type": "Feature", "properties": { "meeting_date": "2nd Thursday", "meeting_location": "Halldale Ave. School Auditorium", "neighborhood_council_name": "Harbor Gateway South", "zip_code": "90501", "extended_zip_code": null, "room": null }, "geometry": { "type": "Point", "coordinates": [ -118.30163669599972, 33.833311250000463 ] } },
{ "type": "Feature", "properties": { "meeting_date": "2nd Tuesday", "meeting_location": "Japanese American Cultural Community Center", "neighborhood_council_name": "Historic Cultural", "zip_code": "90012", "extended_zip_code": null, "room": null }, "geometry": { "type": "Point", "coordinates": [ -118.24224921599972, 34.047929816000476 ] } },
{ "type": "Feature", "properties": { "meeting_date": "1st and 3rd Thursdays", "meeting_location": "Highland Park Senior Center", "neighborhood_council_name": "Historic Highland Park", "zip_code": "90042", "extended_zip_code": null, "room": null }, "geometry": { "type": "Point", "coordinates": [ -118.18544848699969, 34.114349135000452 ] } },
{ "type": "Feature", "properties": { "meeting_date": "Varies", "meeting_location": "Women’s Club of Hollywood", "neighborhood_council_name": "Hollywood Hills West", "zip_code": "90046", "extended_zip_code": null, "room": null }, "geometry": { "type": "Point", "coordinates": [ -118.3466193859997, 34.042802507000488 ] } },
{ "type": "Feature", "properties": { "meeting_date": "2nd Monday", "meeting_location": "Assistance League of Southern California", "neighborhood_council_name": "Hollywood Studio District", "zip_code": "90028", "extended_zip_code": null, "room": null }, "geometry": { "type": "Point", "coordinates": [ -118.31093667999971, 34.096580623000477 ] } },
{ "type": "Feature", "properties": { "meeting_date": "3rd Monday", "meeting_location": "Hollywood Seventh-day Adventist Church", "neighborhood_council_name": "Hollywood United", "zip_code": "90028", "extended_zip_code": null, "room": null }, "geometry": { "type": "Point", "coordinates": [ -118.3158827739997, 34.102041935000443 ] } },
{ "type": "Feature", "properties": { "meeting_date": "1st Wednesday", "meeting_location": "El Sereno Senior Center", "neighborhood_council_name": "LA-32", "zip_code": "90032", "extended_zip_code": null, "room": null }, "geometry": { "type": "Point", "coordinates": [ -118.17929903199968, 34.075642631000449 ] } },
{ "type": "Feature", "properties": { "meeting_date": "1st Wednesday", "meeting_location": "Gault Street Elementary School ", "neighborhood_council_name": "Lake Balboa", "zip_code": "91406", "extended_zip_code": null, "room": null }, "geometry": { "type": "Point", "coordinates": [ -118.5034494249997, 34.199353025000448 ] } },
{ "type": "Feature", "properties": { "meeting_date": "1st & 3rd Thursday", "meeting_location": "Lincoln Heights Library", "neighborhood_council_name": "Lincoln Heights", "zip_code": "90031", "extended_zip_code": null, "room": null }, "geometry": { "type": "Point", "coordinates": [ -118.21439664099972, 34.076311823000481 ] } },
{ "type": "Feature", "properties": { "meeting_date": "3rd Tuesday", "meeting_location": "Citibank Community Room, 2nd FL", "neighborhood_council_name": "Los Feliz", "zip_code": "90027", "extended_zip_code": null, "room": null }, "geometry": { "type": "Point", "coordinates": [ -118.28737840699972, 34.107135401000448 ] } },
{ "type": "Feature", "properties": { "meeting_date": "1st Wednesday", "meeting_location": "The Seven Maples Community Room", "neighborhood_council_name": "MacArthur Park", "zip_code": "90057", "extended_zip_code": null, "room": null }, "geometry": { "type": "Point", "coordinates": [ -118.2829313149997, 34.05919473600045 ] } },
{ "type": "Feature", "properties": { "meeting_date": "2nd Tuesday", "meeting_location": "Mar Vista Recreation Ctr. Auditorium", "neighborhood_council_name": "Mar Vista", "zip_code": "90066", "extended_zip_code": null, "room": null }, "geometry": { "type": "Point", "coordinates": [ -119.14417885799969, 34.162701573000447 ] } },
{ "type": "Feature", "properties": { "meeting_date": "2nd Monday", "meeting_location": "LAPD Wilshire Division – Community Room", "neighborhood_council_name": "Mid City", "zip_code": "90019", "extended_zip_code": "5664", "room": null }, "geometry": { "type": "Point", "coordinates": [ -118.34266345799972, 34.046448120000491 ] } },
{ "type": "Feature", "properties": { "meeting_date": "2nd Tuesday", "meeting_location": "National Council of Jewish Women", "neighborhood_council_name": "Mid-City West", "zip_code": "90036", "extended_zip_code": null, "room": null }, "geometry": { "type": "Point", "coordinates": [ -118.3615121519997, 34.081121710000446 ] } },
{ "type": "Feature", "properties": { "meeting_date": "2nd Wednesday", "meeting_location": "Senior Center in NoHo Park", "neighborhood_council_name": "Mid-Town North Hollywood", "zip_code": "91601", "extended_zip_code": null, "room": null }, "geometry": { "type": "Point", "coordinates": [ -118.37900110899972, 34.167093311000485 ] } },
{ "type": "Feature", "properties": { "meeting_date": "1st Monday", "meeting_location": "Mission Community Police Station - Falco Room", "neighborhood_council_name": "Mission Hills", "zip_code": "91345", "extended_zip_code": null, "room": null }, "geometry": { "type": "Point", "coordinates": [ -118.46760208499973, 34.27272364400045 ] } },
{ "type": "Feature", "properties": { "meeting_date": " 1st Thursday", "meeting_location": "Penny Lane’s Rainbow Room", "neighborhood_council_name": "North Hills East", "zip_code": "91343", "extended_zip_code": null, "room": null }, "geometry": { "type": "Point", "coordinates": [ -118.46615947399971, 34.231853223000485 ] } },
{ "type": "Feature", "properties": { "meeting_date": "3rd Thursday", "meeting_location": "New Horizon Center", "neighborhood_council_name": "North Hills West", "zip_code": "91343", "extended_zip_code": null, "room": null }, "geometry": { "type": "Point", "coordinates": [ -118.47516927799973, 34.228337896000482 ] } },
{ "type": "Feature", "properties": { "meeting_date": "3rd Thursday", "meeting_location": "LA Fire Station 89", "neighborhood_council_name": "North Hollywood North East", "zip_code": "91605", "extended_zip_code": null, "room": null }, "geometry": { "type": "Point", "coordinates": [ -118.3965422499997, 34.199299727000493 ] } },
{ "type": "Feature", "properties": { "meeting_date": "4th Wednesday", "meeting_location": "Saticoy Elementary School Auditorium", "neighborhood_council_name": "North Hollywood West", "zip_code": "91605", "extended_zip_code": null, "room": null }, "geometry": { "type": "Point", "coordinates": [ -118.41656824599971, 34.213642926000489 ] } },
{ "type": "Feature", "properties": { "meeting_date": "3rd Wednesday", "meeting_location": "Northridge Woman’s Club", "neighborhood_council_name": "Northridge East", "zip_code": "91325", "extended_zip_code": null, "room": null }, "geometry": { "type": "Point", "coordinates": [ -118.53480903699972, 34.250007853000454 ] } },
{ "type": "Feature", "properties": { "meeting_date": "4rd Thursday (except Nov and Dec meetings)", "meeting_location": "Northridge Middle School", "neighborhood_council_name": "Northridge South", "zip_code": "91326", "extended_zip_code": null, "room": null }, "geometry": { "type": "Point", "coordinates": [ -122.11309789599972, 37.903380565000475 ] } },
{ "type": "Feature", "properties": { "meeting_date": "2nd Tuesday", "meeting_location": "Northridge Christian Church", "neighborhood_council_name": "Northridge West", "zip_code": "91326", "extended_zip_code": null, "room": null }, "geometry": { "type": "Point", "coordinates": [ -122.11309789599972, 37.903380565000475 ] } },
{ "type": "Feature", "properties": { "meeting_date": "2nd Monday", "meeting_location": "Peck Park Auditorium", "neighborhood_council_name": "Northwest San Pedro", "zip_code": "90732", "extended_zip_code": null, "room": null }, "geometry": { "type": "Point", "coordinates": [ -118.3093969469997, 33.74800533600046 ] } },
{ "type": "Feature", "properties": { "meeting_date": "1st Monday", "meeting_location": "LAPD West Bureau Community Room", "neighborhood_council_name": "Olympic Park", "zip_code": "90018", "extended_zip_code": null, "room": null }, "geometry": { "type": "Point", "coordinates": [ -118.34266345799972, 34.046448120000491 ] } },
{ "type": "Feature", "properties": { "meeting_date": "3rd Wednesday", "meeting_location": "Pacoima City Hall", "neighborhood_council_name": "Pacoima", "zip_code": "91331", "extended_zip_code": null, "room": null }, "geometry": { "type": "Point", "coordinates": [ -118.42757259499967, 34.262076987000455 ] } },
{ "type": "Feature", "properties": { "meeting_date": "1st Wednesday", "meeting_location": "Iman Cultural Center", "neighborhood_council_name": "Palms", "zip_code": "90034", "extended_zip_code": null, "room": null }, "geometry": { "type": "Point", "coordinates": [ -118.42109995699968, 34.019793650000452 ] } },
{ "type": "Feature", "properties": { "meeting_date": "4th Thursday, (3rd in Nov & Dec)", "meeting_location": "Mission Community Hospital - Medical Office, 2nd Floor", "neighborhood_council_name": "Panorama City", "zip_code": "91402", "extended_zip_code": null, "room": null }, "geometry": { "type": "Point", "coordinates": [ -118.45695046899971, 34.221454801000448 ] } },
{ "type": "Feature", "properties": { "meeting_date": "2nd Saturday", "meeting_location": "Angeles Mesa Elementary Auditorium", "neighborhood_council_name": "Park Mesa Heights", "zip_code": "90043", "extended_zip_code": null, "room": null }, "geometry": { "type": "Point", "coordinates": [ -118.32153951399971, 33.995048298000484 ] } },
{ "type": "Feature", "properties": { "meeting_date": "2nd Wednesday", "meeting_location": "Saturn Elementary School", "neighborhood_council_name": "P.I.C.O.", "zip_code": "90019", "extended_zip_code": null, "room": null }, "geometry": { "type": "Point", "coordinates": [ -118.35620718199971, 34.046783307000453 ] } },
{ "type": "Feature", "properties": { "meeting_date": "1st Monday", "meeting_location": "Pico Union Library", "neighborhood_council_name": "Pico Union", "zip_code": "90006", "extended_zip_code": null, "room": null }, "geometry": { "type": "Point", "coordinates": [ -118.28034337999969, 34.050903869000479 ] } },
{ "type": "Feature", "properties": { "meeting_date": "1st Tuesday", "meeting_location": "Shepherd of the Hills Church", "neighborhood_council_name": "Porter Ranch", "zip_code": "91326", "extended_zip_code": null, "room": null }, "geometry": { "type": "Point", "coordinates": [ -118.56452942599969, 34.274812943000484 ] } },
{ "type": "Feature", "properties": { "meeting_date": "3rd Tuesday", "meeting_location": "St. Anne’s", "neighborhood_council_name": "Rampart Village", "zip_code": "90026", "extended_zip_code": null, "room": "236" }, "geometry": { "type": "Point", "coordinates": [ -118.27864612099972, 34.072026629000447 ] } },
{ "type": "Feature", "properties": { "meeting_date": "1st Monday 3rd Monday", "meeting_location": "City Councilmember Bob Blumenfield’s District 3 Field Office", "neighborhood_council_name": "Reseda", "zip_code": "91335", "extended_zip_code": null, "room": null }, "geometry": { "type": "Point", "coordinates": [ -118.54788175099969, 34.193817042000489 ] } },
{ "type": "Feature", "properties": { "meeting_date": null, "meeting_location": "American Legion Hall", "neighborhood_council_name": "Reseda", "zip_code": "91335", "extended_zip_code": null, "room": null }, "geometry": { "type": "Point", "coordinates": [ -118.5347663979997, 34.203980513000488 ] } },
{ "type": "Feature", "properties": { "meeting_date": "2nd Monday", "meeting_location": "Sherman Oaks Elementary School", "neighborhood_council_name": "Sherman Oaks", "zip_code": "91403", "extended_zip_code": null, "room": null }, "geometry": { "type": "Point", "coordinates": [ -118.45561585999968, 34.149488198000483 ] } },
{ "type": "Feature", "properties": { "meeting_date": "1st Wednesday", "meeting_location": "Micheltorena Street Elementary School", "neighborhood_council_name": "Silver Lake", "zip_code": "90026", "extended_zip_code": null, "room": null }, "geometry": { "type": "Point", "coordinates": [ -118.27514619099969, 34.088726803000441 ] } },
{ "type": "Feature", "properties": { "meeting_date": "3rd Saturday (odd numbered months), 3rd Tuesday (even numbered months)", "meeting_location": "All People Community Center", "neighborhood_council_name": "South Central", "zip_code": "90011", "extended_zip_code": null, "room": null }, "geometry": { "type": "Point", "coordinates": [ -118.29515915999968, 33.726098497000464 ] } },
{ "type": "Feature", "properties": { "meeting_date": "3rd Thursday", "meeting_location": "Simon Wiesenthal Center", "neighborhood_council_name": "South Robertson", "zip_code": "90035", "extended_zip_code": null, "room": null }, "geometry": { "type": "Point", "coordinates": [ -118.40231624599971, 34.05413493700047 ] } },
{ "type": "Feature", "properties": { "meeting_date": "3rd Wednesday", "meeting_location": "BLDG. 8 MPR-3", "neighborhood_council_name": "Studio City", "zip_code": "91604", "extended_zip_code": null, "room": null }, "geometry": { "type": "Point", "coordinates": [ -118.39267752099971, 34.144352599000456 ] } },
{ "type": "Feature", "properties": { "meeting_date": "2nd Wednesday", "meeting_location": "North Valley City Hall", "neighborhood_council_name": "Sunland-Tujunga", "zip_code": "91042", "extended_zip_code": null, "room": null }, "geometry": { "type": "Point", "coordinates": [ -118.3016982849997, 34.25813171900046 ] } },
{ "type": "Feature", "properties": { "meeting_date": "2nd Tuesday", "meeting_location": "Villa Scalabrini Retirement Center", "neighborhood_council_name": "Sun Valley Area", "zip_code": "91352", "extended_zip_code": null, "room": null }, "geometry": { "type": "Point", "coordinates": [ -118.36267879599967, 34.228668346000461 ] } },
{ "type": "Feature", "properties": { "meeting_date": "4th Thursday, Meetings rotate, please see SylmarNC.org or call (818) 833-8737", "meeting_location": null, "neighborhood_council_name": "Sylmar", "zip_code": null, "extended_zip_code": null, "room": null }, "geometry": { "type": "Point", "coordinates": [ -120.99999889499969, 37.638640488000476 ] } },
{ "type": "Feature", "properties": { "meeting_date": "4th Tuesday", "meeting_location": "Providence Tarzana Medical Center, North Conference Rooms", "neighborhood_council_name": "Tarzana", "zip_code": "91356", "extended_zip_code": null, "room": null }, "geometry": { "type": "Point", "coordinates": [ -118.53259892799969, 34.169798453000453 ] } },
{ "type": "Feature", "properties": { "meeting_date": "1st Thursday", "meeting_location": "Council District 10 Field Office ", "neighborhood_council_name": "United Neighborhoods", "zip_code": "90006", "extended_zip_code": null, "room": null }, "geometry": { "type": "Point", "coordinates": [ -118.30905228299969, 34.041189341000461 ] } },
{ "type": "Feature", "properties": { "meeting_date": "4th Wednesday", "meeting_location": "Faith Presbyterian Church – Social Hall", "neighborhood_council_name": "Valley Village", "zip_code": "91607", "extended_zip_code": null, "room": null }, "geometry": { "type": "Point", "coordinates": [ -118.39767945799969, 34.164881055000478 ] } },
{ "type": "Feature", "properties": { "meeting_date": "2nd Wednesday", "meeting_location": "Marvin Braude Constituent Center", "neighborhood_council_name": "Van Nuys", "zip_code": "91401", "extended_zip_code": null, "room": null }, "geometry": { "type": "Point", "coordinates": [ -118.44872614999969, 34.184090723000452 ] } },
{ "type": "Feature", "properties": { "meeting_date": "3rd Tuesday", "meeting_location": "Westminster Elementary Auditorium", "neighborhood_council_name": "Venice", "zip_code": "90291", "extended_zip_code": null, "room": null }, "geometry": { "type": "Point", "coordinates": [ -118.47220470099973, 33.992113331000439 ] } },
{ "type": "Feature", "properties": { "meeting_date": "2nd Tuesday", "meeting_location": "Normandie Ave. Elementary", "neighborhood_council_name": "Voices of 90037", "zip_code": "90037", "extended_zip_code": null, "room": null }, "geometry": { "type": "Point", "coordinates": [ -118.29809294299969, 34.002180812000461 ] } },
{ "type": "Feature", "properties": { "meeting_date": "2nd Tuesday", "meeting_location": "Watts Senior Citizen Center", "neighborhood_council_name": "Watts", "zip_code": "90002", "extended_zip_code": null, "room": null }, "geometry": { "type": "Point", "coordinates": [ -118.3060794159997, 33.94549852400047 ] } },
{ "type": "Feature", "properties": { "meeting_date": "3rd Monday", "meeting_location": "Vineyard Recreation Center", "neighborhood_council_name": "West Adams", "zip_code": "90016", "extended_zip_code": null, "room": null }, "geometry": { "type": "Point", "coordinates": [ -118.34660517299972, 34.028321915000447 ] } },
{ "type": "Feature", "properties": { "meeting_date": "1st Tuesday", "meeting_location": "Westchester Minicipal Bldg. , Council Community Room", "neighborhood_council_name": "Westchester\/Playa", "zip_code": "90045", "extended_zip_code": null, "room": null }, "geometry": { "type": "Point", "coordinates": [ -118.41767922199972, 33.959693672000469 ] } },
{ "type": "Feature", "properties": { "meeting_date": "1st Tuesday", "meeting_location": "Chaminade Preparatory School", "neighborhood_council_name": "West Hills", "zip_code": "91304", "extended_zip_code": null, "room": null }, "geometry": { "type": "Point", "coordinates": [ -118.6234393369997, 34.208271809000451 ] } },
{ "type": "Feature", "properties": { "meeting_date": "2nd Thursday", "meeting_location": "Rampart Police Station Community Room", "neighborhood_council_name": "Westlake North", "zip_code": "90017", "extended_zip_code": null, "room": null }, "geometry": { "type": "Point", "coordinates": [ -118.30804959499972, 33.738814768000452 ] } },
{ "type": "Feature", "properties": { "meeting_date": "4th Monday", "meeting_location": "Royal Palms Recovery Center", "neighborhood_council_name": "Westlake South", "zip_code": "90057", "extended_zip_code": null, "room": null }, "geometry": { "type": "Point", "coordinates": [ -118.27199038699968, 34.061578596000459 ] } },
{ "type": "Feature", "properties": { "meeting_date": "4th Wednesday", "meeting_location": "WLANC Hearing Room 104-2", "neighborhood_council_name": "West Los Angeles", "zip_code": "90025", "extended_zip_code": null, "room": null }, "geometry": { "type": "Point", "coordinates": [ -118.44880313699969, 34.045251866000456 ] } },
{ "type": "Feature", "properties": { "meeting_date": "2nd Thursday", "meeting_location": "Westside Pavilion", "neighborhood_council_name": "Westside", "zip_code": "90064", "extended_zip_code": null, "room": "Room A" }, "geometry": { "type": "Point", "coordinates": [ -118.42771709399972, 34.040475142000446 ] } },
{ "type": "Feature", "properties": { "meeting_date": "2nd Wednesday", "meeting_location": "Westwood Presbyterian Church, Hoffman Hall", "neighborhood_council_name": "Westwood", "zip_code": "90024", "extended_zip_code": null, "room": null }, "geometry": { "type": "Point", "coordinates": [ -118.44108197099968, 34.059513341000468 ] } },
{ "type": "Feature", "properties": { "meeting_date": "4th Wednesday", "meeting_location": "Wilmington Senior Center", "neighborhood_council_name": "Wilmington", "zip_code": "90744", "extended_zip_code": null, "room": null }, "geometry": { "type": "Point", "coordinates": [ -118.2562536799997, 33.791150978000474 ] } },
{ "type": "Feature", "properties": { "meeting_date": "2nd Monday", "meeting_location": "Young Oak Kim Academy", "neighborhood_council_name": "Wilshire Center-Koreatown", "zip_code": "90005", "extended_zip_code": null, "room": null }, "geometry": { "type": "Point", "coordinates": [ -118.28992288499973, 34.062970633000475 ] } },
{ "type": "Feature", "properties": { "meeting_date": "2nd Tuesday", "meeting_location": "Valley Village Center", "neighborhood_council_name": "Winnetka", "zip_code": "91306", "extended_zip_code": null, "room": null }, "geometry": { "type": "Point", "coordinates": [ -118.58719902499968, 34.200973297000473 ] } },
{ "type": "Feature", "properties": { "meeting_date": "2nd Wednesday", "meeting_location": "Woodland Hills Academy", "neighborhood_council_name": "Woodland Hills-Warner Center", "zip_code": "91367", "extended_zip_code": null, "room": null }, "geometry": { "type": "Point", "coordinates": [ -118.58674894999967, 34.171943419000456 ] } }
]
}
